Time(s)	Alt(km)	Dyn_Pres	Accel	Speed(km/s)	Mach	Pitch_Rate	Roll_Rate	Yaw_Rate
0	0.001659216	0	9.819267903	0	0	0	0	0
0.0002	0.001659216	0	9.819267903	0	0	0	0	0
0.0004	0.001659216	0	9.819267903	0	0	0	0	0
0.0006	0.001659216	0	9.819267903	0	0	0	0	0
0.0008	0.001659216	0	9.819267903	0	0	0	0	0
0.001	0.001659216	0	9.819267903	0	0	0	0	0
0.0012	0.001659216	0	9.819267903	0	0	0	0	0
0.0014	0.001659216	0	9.819267903	0	0	0	0	0
0.0016	0.001659216	0	9.819267903	0	0	0	0	0
0.0018	0.001659216	0	9.819267903	0	0	0	0	0
0.002	0.001659216	0	9.819267903	0	0	0	0	0
0.0022	0.001659216	0	9.819267903	0	0	0	0	0
0.0024	0.001659216	0	9.819267903	0	0	0	0	0
0.0026	0.001659216	0	9.819267903	0	0	0	0	0
0.0028	0.001659216	0	9.819267903	0	0	0	0	0
0.003	0.001659216	0	9.819267903	0	0	0	0	0
0.0032	0.001659216	0	9.819267903	0	0	0	0	0
0.0034	0.001659216	0	9.819267903	0	0	0	0	0
0.0036	0.001659216	0	9.819267903	0	0	0	0	0
0.0038	0.001659216	0	9.819267903	0	0	0	0	0
0.004	0.001659216	0	9.819267903	0	0	0	0	0
0.0042	0.001659216	0	9.819267903	0	0	0	0	0
0.0044	0.001659216	0	9.819267903	0	0	0	0	0
0.0046	0.001659216	0	9.819267903	0	0	0	0	0
0.0048	0.001659216	0	9.819267903	0	0	0	0	0
0.005	0.001659216	0	9.819267903	0	0	0	0	0
0.0052	0.001659216	0	9.819267903	0	0	0	0	0
0.0054	0.001659216	0	9.819267903	0	0	0	0	0
0.0056	0.001659216	0	9.819267903	0	0	0	0	0
0.0058	0.001659216	0	9.819267903	0	0	0	0	0
0.006	0.001659216	0	9.819267903	0	0	0	0	0
0.0062	0.001659216	0	9.819267903	0	0	0	0	0
0.0064	0.001659216	0	9.819267903	0	0	0	0	0
0.0066	0.001659216	0	9.819267903	0	0	0	0	0
0.0068	0.001659216	0	9.819267903	0	0	0	0	0
0.007	0.001659216	0	9.819267903	0	0	0	0	0
0.0072	0.001659216	0	9.819267903	0	0	0	0	0
0.0074	0.001659216	0	9.819267903	0	0	0	0	0
0.0076	0.001659216	0	9.819267903	0	0	0	0	0
0.0078	0.001659216	0	9.819267903	0	0	0	0	0
0.008	0.001659216	0	9.819267903	0	0	0	0	0
0.0082	0.001659216	0	9.819267903	0	0	0	0	0
0.0084	0.001659216	0	9.819267903	0	0	0	0	0
0.0086	0.001659216	0	9.819267903	0	0	0	0	0
0.0088	0.001659216	0	9.819267903	0	0	0	0	0
0.009	0.001659216	0	9.819267903	0	0	0	0	0
0.0092	0.001659216	0	9.819267903	0	0	0	0	0
0.0094	0.001659216	0	9.819267903	0	0	0	0	0
0.0096	0.001659216	0	9.819267903	0	0	0	0	0
0.0098	0.001659216	0	9.819267903	0	0	0	0	0
0.01	0.001659216	0	9.819267903	0	0	0	0	0
0.01	0.001659216	0	9.819267903	0	0	0	0	0
0.0204	0.001658724	0.004564189	5.244451407	8.63E-05	0.000253698	0	0	0
0.0308	0.001657683	0.006352859	2.306573728	0.000101851	0.000299309	0	0	0
0.0412	0.001656876	0.001047027	9.48811613	4.13E-05	0.000121511	0	0	0
0.0516	0.00165709	0.005552525	16.78673053	9.52E-05	0.000279821	0	0	0
0.062	0.001659112	0.058055589	24.09995622	0.000307896	0.00090481	0	0	0
0.0724	0.001663731	0.218062016	31.42042041	0.000596722	0.00175358	0	0	0
0.0828	0.001671736	0.5664362	38.74631351	0.00096174	0.002826254	0	0	0
0.0932	0.001683917	1.205439929	46.07697187	0.001402991	0.004122957	0	0	0
0.1036	0.001701057	2.248029565	50.87175652	0.001915947	0.005630377	0	0	0
0.114	0.001723643	3.661508499	50.86953836	0.002445193	0.007185667	0	0	0
0.1244	0.00175171	5.417959214	50.86729577	0.002974415	0.00874089	0	0	0
0.1348	0.001785259	7.517329962	50.86502872	0.003503613	0.010296045	0	0	0
0.1452	0.001824288	9.959567254	50.8627372	0.004032788	0.011851133	0	0	0
0.1556	0.001868799	12.74461586	50.8604212	0.004561939	0.013406153	0	0	0
0.166	0.00191879	15.87241881	50.85808069	0.005091065	0.014961104	0	0	0
0.1764	0.001974262	19.3429174	50.85571567	0.005620167	0.016515985	0	0	0
0.1868	0.002035214	23.15605117	50.85332611	0.006149245	0.018070798	0	0	0
0.1972	0.002101645	27.31175793	50.85091201	0.006678297	0.01962554	0	0	0
0.2076	0.002173556	31.80997376	50.84847334	0.007207324	0.021180211	0	0	0
0.218	0.002250947	36.65063298	50.84601008	0.007736326	0.022734812	0	0	0
0.2284	0.002333817	41.83366817	50.84352223	0.008265302	0.024289341	0	0	0
0.2388	0.002422165	47.3590102	50.84100978	0.008794252	0.025843798	0	0	0
0.2492	0.002515992	53.22658815	50.83847269	0.009323176	0.027398183	0	0	0
0.2596	0.002615297	59.4363294	50.83591097	0.009852073	0.028952495	0	0	0
0.27	0.002720081	65.98815957	50.83332458	0.010380943	0.030506734	0	0	0
0.2804	0.002830342	72.88200256	50.83071353	0.010909787	0.032060899	0	0	0
0.2908	0.00294608	80.11778049	50.82807779	0.011438603	0.033614989	0	0	0
0.3012	0.003067296	87.69541379	50.82541735	0.011967391	0.035169005	0	0	0
0.3116	0.003193988	95.61482111	50.8227322	0.012496152	0.036722946	0	0	0
0.322	0.003326157	103.8759194	50.82002232	0.013024885	0.038276811	0	0	0
0.3324	0.003463802	112.4786238	50.8172877	0.013553589	0.0398306	0	0	0
0.3428	0.003606924	121.4228478	50.81452832	0.014082265	0.041384313	0	0	0
0.3532	0.003755521	130.708503	50.81174416	0.014610912	0.042937948	0	0	0
0.3636	0.003909593	140.3354996	50.80893523	0.01513953	0.044491506	0	0	0
0.374	0.004069141	150.3037456	50.80610149	0.015668118	0.046044986	0	0	0
0.3844	0.004234163	160.6131476	50.80324294	0.016196677	0.047598387	0	0	0
0.3948	0.00440466	171.2636103	50.80035957	0.016725206	0.049151709	0	0	0
0.4052	0.00458063	182.2550367	50.79745136	0.017253705	0.050704952	0	0	0
0.4156	0.004762075	193.5873282	50.79451829	0.017782174	0.052258115	0	0	0
0.426	0.004948993	205.2603841	50.79156036	0.018310612	0.053811198	0	0	0
0.4364	0.005141385	217.2741025	50.78857754	0.018839019	0.0553642	0	0	0
0.4468	0.005339249	229.6283792	50.78556984	0.019367394	0.056917121	0	0	0
0.4572	0.005542586	242.3231087	50.78253723	0.019895739	0.05846996	0	0	0
0.4676	0.005751395	255.3581835	50.7794797	0.020424052	0.060022716	0	0	0
0.478	0.005965677	268.7334945	50.77639725	0.020952332	0.06157539	0	0	0
0.4884	0.006185429	282.4489308	50.77328984	0.021480581	0.063127981	0	0	0
0.4988	0.006410653	296.5043798	50.77015749	0.022008797	0.064680488	0	0	0
0.5092	0.006641348	310.9004837	50.77294437	0.022537008	0.066232991	0	0	0
0.5196	0.006877514	325.638364	50.77648499	0.023065256	0.067785614	0	0	0
0.53	0.007119152	340.7180538	50.78000421	0.02359354	0.069338357	0	0	0
0.53	0.007119152	340.7180538	50.78000421	0.02359354	0.069338357	1.85E-05	-0.040780346	-0.042821451
0.539785	0.007351493	355.2181612	50.78328613	0.024090619	0.070799393	-0.000093162	0.080962182	-0.042823697
0.54957	0.00758867	370.0209673	50.7865487	0.024587733	0.072260544	-0.000434934	0.207568958	-0.042830586
0.559355	0.007830685	385.1264836	50.78979196	0.025084882	0.073721809	-0.001015679	0.339124575	-0.042842348
0.56914	0.008077537	400.5347201	50.79301594	0.025582065	0.075183187	-0.00184418	0.475712787	-0.042859214
0.578925	0.008329226	416.2456856	50.79622065	0.026079282	0.076644678	-0.00292914	0.61741649	-0.042881418
0.58871	0.008585753	432.2593876	50.79940614	0.026576533	0.07810628	-0.00427918	0.764317715	-0.042909195
0.598495	0.008847119	448.5758321	50.80257245	0.027073817	0.079567993	-0.005902825	0.916497611	-0.04294278
0.60828	0.009113323	465.195024	50.8057196	0.027571134	0.081029816	-0.007808507	1.074036432	-0.042982408
0.618065	0.009384366	482.116967	50.80884764	0.028068485	0.082491748	-0.010004548	1.237013524	-0.043028313
0.62785	0.009660248	499.341663	50.8119566	0.028565867	0.08395379	-0.012499156	1.405507314	-0.043080725
0.637635	0.009940969	516.8691132	50.81504654	0.029063282	0.08541594	-0.01530042	1.579595299	-0.04313987
0.64742	0.01022653	534.6993171	50.81811749	0.029560728	0.086878197	-0.018416296	1.759354032	-0.043205969
0.657205	0.010516931	552.832273	50.82116949	0.030058207	0.088340562	-0.021854599	1.944859112	-0.043279233
0.66699	0.010812173	571.2679779	50.82420261	0.030555716	0.089803034	-0.025622999	2.136185175	-0.043359864
0.676775	0.011112255	590.0064276	50.82721688	0.031053257	0.091265611	-0.029729005	2.333405881	-0.043448051
0.68656	0.011417178	609.0476165	50.83021235	0.031550829	0.092728294	-0.034179959	2.536593908	-0.043543971
0.696345	0.011726942	628.3915377	50.83318909	0.032048431	0.094191083	-0.038983024	2.745820939	-0.043647781
0.70613	0.012041548	648.038183	50.83614714	0.032546063	0.095653975	-0.044145176	2.961157657	-0.043759618
0.715915	0.012360995	667.987543	50.83908657	0.033043726	0.097116972	-0.049673189	3.182673736	-0.043879595
0.7257	0.012685285	688.2396069	50.84200742	0.033541418	0.098580073	-0.05557363	3.410437832	-0.044007799
0.735485	0.013014417	708.7943626	50.84490976	0.03403914	0.100043277	-0.061852841	3.644517576	-0.044144286
0.74527	0.013348391	729.651797	50.84779365	0.034536891	0.101506583	-0.068516931	3.884979569	-0.044289077
0.755055	0.013687209	750.8118952	50.85065916	0.035034672	0.102969992	-0.075571764	4.131889377	-0.044442154
0.76484	0.014030869	772.2746416	50.85350634	0.035532481	0.104433502	-0.083022944	4.385311523	-0.044603455
0.774625	0.014379373	794.0400188	50.85633527	0.036030319	0.105897115	-0.090875806	4.645309483	-0.044772871
0.78441	0.014732721	816.1080084	50.85914601	0.036528186	0.107360828	-0.0991354	4.911945685	-0.044950236
0.794195	0.015090913	838.4785907	50.86193863	0.037026081	0.108824641	-0.107806482	5.185281499	-0.045135328
0.80398	0.015453949	861.1517447	50.8647132	0.037524003	0.110288555	-0.116893493	5.46537724	-0.04532786
0.813765	0.01582183	884.1274482	50.8674698	0.038021954	0.111752569	-0.126400555	5.752292164	-0.045527473
0.82355	0.016194555	907.4056776	50.87020849	0.038519932	0.113216683	-0.136331449	6.046084463	-0.045733731
0.833335	0.016572126	930.986408	50.87292935	0.039017938	0.114680895	-0.146689604	6.346811269	-0.045946115
0.84312	0.016954541	954.8696134	50.87563246	0.039515971	0.116145206	-0.157478085	6.654528648	-0.046164015
0.852905	0.017341803	979.0552666	50.8783179	0.04001403	0.117609615	-0.168699576	6.969291604	-0.046386724
0.86269	0.01773391	1003.543339	50.88098574	0.040512117	0.119074123	-0.180356364	7.291154076	-0.046613429
0.872475	0.018130863	1028.3338	50.88363606	0.04101023	0.120538728	-0.192450328	7.620168942	-0.046843205
0.88226	0.018532663	1053.42662	50.88626894	0.041508369	0.12200343	-0.204982922	7.956388019	-0.047075007
0.892045	0.018939309	1078.821765	50.88888448	0.042006535	0.123468229	-0.217955158	8.299862062	-0.047307661
0.90183	0.019350802	1104.519203	50.89148274	0.042504727	0.124933125	-0.231367598	8.650640773	-0.047539857
0.911615	0.019767142	1130.518897	50.89406381	0.043002944	0.126398117	-0.24522033	9.008772799	-0.047770142
0.9214	0.020188329	1156.820813	50.89662778	0.043501187	0.127863205	-0.25951296	9.374305733	-0.047996906
0.931185	0.020614363	1183.424913	50.89917473	0.043999455	0.129328389	-0.274244594	9.747286126	-0.048218381
0.94097	0.021045246	1210.331158	50.90170475	0.044497749	0.130793668	-0.289413822	10.12775948	-0.048432627
0.950755	0.021480976	1237.539508	50.90421793	0.044996067	0.132259042	-0.305018707	10.51577026	-0.048637528
0.96054	0.021921554	1265.049922	50.90671435	0.04549441	0.13372451	-0.321056766	10.91136191	-0.048830779
0.970325	0.022366981	1292.862359	50.9091941	0.045992778	0.135190073	-0.33752496	11.31457681	-0.04900988
0.98011	0.022817257	1320.976774	50.91165728	0.04649117	0.13665573	-0.354419674	11.72545634	-0.04917213
0.989895	0.023272381	1349.393122	50.91410396	0.046989587	0.13812148	-0.37173671	12.14404087	-0.049314614
0.99968	0.023732354	1378.111358	50.91653424	0.047488028	0.139587324	-0.389471265	12.57036973	-0.0494342
1.009465	0.024197176	1407.131945	50.92079052	0.047986501	0.141053287	-0.407617927	13.00448131	-0.04952753
1.01925	0.024666848	1436.455439	50.92509377	0.048485016	0.142519397	-0.426170658	13.44641322	-0.049591012
1.029035	0.02514137	1466.081825	50.9293818	0.048983574	0.143985655	-0.445122785	13.89620216	-0.049620816
1.03882	0.025620743	1496.011085	50.93365471	0.049482174	0.14545206	-0.464466981	14.35388383	-0.049612866
1.048605	0.026104966	1526.243203	50.93791258	0.049980815	0.146918611	-0.484195255	14.81949297	-0.049562835
1.05839	0.02659404	1556.77816	50.9421555	0.050479498	0.14838531	-0.504298943	15.2930633	-0.049466142
1.068175	0.027087965	1587.615934	50.94638355	0.050978223	0.149852154	-0.524768692	15.77462759	-0.049317946
1.07796	0.027586743	1618.756506	50.95059682	0.051476989	0.151319145	-0.545594458	16.26421763	-0.049113145
1.087745	0.028090372	1650.199851	50.9547954	0.051975796	0.152786281	-0.566765488	16.76186422	-0.048846374
1.09753	0.028598854	1681.945947	50.95897937	0.052474644	0.154253563	-0.588270318	17.2675972	-0.048512001
1.107315	0.029112189	1713.994768	50.96314881	0.052973533	0.155720991	-0.610096764	17.78144545	-0.048104132
1.1171	0.029630377	1746.346288	50.96730382	0.053472463	0.157188563	-0.632231913	18.30343684	-0.04761661
1.126885	0.030153418	1779.000479	50.97144447	0.053971433	0.158656281	-0.654662118	18.83359831	-0.047043017
1.13667	0.030681314	1811.957313	50.97557084	0.054470443	0.160124143	-0.677372995	19.37195578	-0.046376678
1.146455	0.031214063	1845.21676	50.97968301	0.054969494	0.161592149	-0.700349418	19.91853421	-0.045610671
1.15624	0.031751667	1878.778788	50.98378107	0.055468584	0.1630603	-0.723575515	20.47335757	-0.044737827
1.166025	0.032294126	1912.643364	50.98786509	0.055967714	0.164528594	-0.747034668	21.03644883	-0.043750746
1.17581	0.03284144	1946.810456	50.99193514	0.056466884	0.165997032	-0.770709512	21.60782997	-0.042641802
1.185595	0.03339361	1981.280028	50.99599129	0.056966094	0.167465614	-0.794581936	22.18752195	-0.041403161
1.19538	0.033950635	2016.052044	51.00003363	0.057465343	0.168934338	-0.818633085	22.77554469	-0.04002679
1.205165	0.034512517	2051.126467	51.00406222	0.057964631	0.170403206	-0.842843366	23.37191711	-0.038504476
1.21495	0.035079255	2086.503257	51.00807712	0.058463958	0.171872217	-0.867192447	23.97665704	-0.036827847
1.224735	0.035650849	2122.182375	51.01207841	0.058963323	0.17334137	-0.891659271	24.58978126	-0.034988385
1.23452	0.036227301	2158.163779	51.01606613	0.059462728	0.174810665	-0.916222057	25.21130547	-0.032977459
1.244305	0.03680861	2194.447427	51.02004036	0.059962171	0.176280102	-0.940858316	25.84124425	-0.030786341
1.25409	0.037394776	2231.033275	51.02400115	0.060461652	0.177749681	-0.965544858	26.47961106	-0.028406238
1.263875	0.0379858	2267.921279	51.02794854	0.060961172	0.179219401	-0.990257805	27.1264182	-0.025828322
1.27366	0.038581682	2305.11139	51.0318826	0.061460729	0.180689263	-1.014972608	27.78167678	-0.02304376
1.283445	0.039182423	2342.603563	51.03580336	0.061960325	0.182159266	-1.039664062	28.44539672	-0.020043747
1.29323	0.039788022	2380.397747	51.03971088	0.062459958	0.18362941	-1.064306324	29.11758668	-0.016819549
1.303015	0.04039848	2418.493893	51.04360518	0.062959628	0.185099694	-1.088872934	29.79825406	-0.013362532
1.3128	0.041013798	2456.891949	51.0474863	0.063459336	0.186570119	-1.113336836	30.48740495	-0.009664216
1.322585	0.041633974	2495.591861	51.05135427	0.063959081	0.188040683	-1.137670403	31.18504407	-0.005716308
1.33237	0.042259011	2534.593576	51.05520912	0.064458864	0.189511388	-1.161845459	31.89117479	-0.001510754
1.342155	0.042888907	2573.897038	51.05905087	0.064958683	0.190982232	-1.185833313	32.60579903	0.002960215
1.35194	0.043523663	2613.50219	51.06287953	0.065458538	0.192453215	-1.209604784	33.32891725	0.007704029
1.361725	0.044163279	2653.408973	51.06669511	0.06595843	0.193924337	-1.233130233	34.06052838	0.01272773
1.37151	0.044807757	2693.617328	51.07049762	0.066458359	0.195395599	-1.256379599	34.80062981	0.018037914
1.381295	0.045457094	2734.127194	51.07428705	0.066958324	0.196866998	-1.279322432	35.5492173	0.023640679
1.39108	0.046111293	2774.938508	51.0780634	0.067458324	0.198338536	-1.301927932	36.30628495	0.029541557
1.400865	0.046770353	2816.051207	51.08182665	0.067958361	0.199810212	-1.324164988	37.07182516	0.035745465
1.41065	0.047434275	2857.465225	51.08557679	0.068458433	0.201282026	-1.34600222	37.84582855	0.042256632
1.420435	0.048103057	2899.180495	51.08931379	0.06895854	0.202753977	-1.367408021	38.62828392	0.049078544
1.43022	0.048776702	2941.196951	51.09303761	0.069458683	0.204226065	-1.388350605	39.41917819	0.056213876
1.440005	0.049455209	2983.514521	51.09674821	0.069958861	0.20569829	-1.408798052	40.21849637	0.063664423
1.44979	0.050138578	3026.133136	51.10044555	0.070459073	0.207170651	-1.428718356	41.02622145	0.07143104
1.459575	0.050826809	3069.052723	51.10412956	0.070959321	0.208643149	-1.44807948	41.84233439	0.07951357
1.46936	0.051519902	3112.273208	51.10780019	0.071459603	0.210115783	-1.466849405	42.66681405	0.087910778
1.479145	0.052217859	3155.794517	51.11145735	0.071959919	0.211588552	-1.484996183	43.49963712	0.096620283
1.48893	0.052920678	3199.616572	51.11510097	0.07246027	0.213061457	-1.502487998	44.34077807	0.10563849
1.498715	0.05362836	3243.739297	51.11873097	0.072960654	0.214534496	-1.519293218	45.1902091	0.114960526
1.5085	0.054340905	3288.16308	51.12357335	0.073461077	0.216007686	-1.535380456	46.04790013	0.12458017
1.518285	0.055058314	3332.888609	51.12858786	0.073961548	0.217481051	-1.550718634	46.91381893	0.134489792
1.52807	0.055780586	3377.915842	51.13358907	0.074462066	0.21895459	-1.565277038	47.78793094	0.144680289
1.537855	0.056507722	3423.244719	51.13857682	0.074962631	0.220428303	-1.579025382	48.67019912	0.155141019
1.54764	0.057239723	3468.875182	51.143551	0.075463242	0.221902191	-1.591933872	49.5605839	0.165859749
1.557425	0.057976587	3514.80717	51.14851145	0.075963901	0.223376252	-1.603973268	50.45904314	0.176822591
1.56721	0.058718317	3561.040619	51.153458	0.076464606	0.224850487	-1.615114953	51.36553206	0.188013952
1.576995	0.059464912	3607.575466	51.15839049	0.076965357	0.226324895	-1.625330994	52.28000325	0.199416485
1.58678	0.060216372	3654.411645	51.16330873	0.077466154	0.227799476	-1.634594213	53.20240662	0.211011042
1.596565	0.060972697	3701.54909	51.16821253	0.077966997	0.22927423	-1.642878251	54.13268934	0.222776631
1.60635	0.061733888	3748.987733	51.17310169	0.078467885	0.230749155	-1.650157633	55.07079586	0.234690384
1.616135	0.062499945	3796.727503	51.17797598	0.078968819	0.232224252	-1.656407841	56.01666786	0.246727523
1.62592	0.063270868	3844.76833	51.18283519	0.079469798	0.233699521	-1.661605375	56.97024426	0.258861337
1.635705	0.064046658	3893.110141	51.18767908	0.079970823	0.235174961	-1.665727824	57.93146119	0.271063164
1.64549	0.064827314	3941.752863	51.19250738	0.080471892	0.236650572	-1.66875393	58.90025202	0.283302377
1.655275	0.065612838	3990.696419	51.19731985	0.080973006	0.238126353	-1.670663653	59.87654737	0.295546388
1.66506	0.066403228	4039.940734	51.20211621	0.081474164	0.239602305	-1.671438241	60.86027508	0.307760647
1.674845	0.067198486	4089.485729	51.20689617	0.081975367	0.241078426	-1.671060289	61.85136031	0.31990866
1.68463	0.067998611	4139.331325	51.21165943	0.082476614	0.242554716	-1.669513804	62.84972552	0.331952012
1.694415	0.068803604	4189.477441	51.21640569	0.082977904	0.244031176	-1.666784269	63.85529054	0.3438504
1.7042	0.069613465	4239.923995	51.22113463	0.083479238	0.245507804	-1.662858702	64.86797264	0.355561678
1.713985	0.070428194	4290.670903	51.22584592	0.083980616	0.246984601	-1.657725716	65.88768655	0.367041915
1.72377	0.071247791	4341.718081	51.23053922	0.084482037	0.248461566	-1.651375574	66.91434462	0.378245461
1.733555	0.072072257	4393.065442	51.23521416	0.084983501	0.249938699	-1.643800252	67.94785683	0.389125025
1.74334	0.072901592	4444.712899	51.2398704	0.085485007	0.251415999	-1.634993485	68.98813096	0.399631775
1.753125	0.073735796	4496.660362	51.24450755	0.085986557	0.252893466	-1.624950823	70.03507268	0.409715437
1.76291	0.074574869	4548.907743	51.24912523	0.086488149	0.2543711	-1.613669681	71.08858567	0.419324418
1.772695	0.075418811	4601.45495	51.25372306	0.086989783	0.2558489	-1.601149384	72.1485718	0.428405944
1.78248	0.076267623	4654.301889	51.25830062	0.087491459	0.257326866	-1.587391215	73.21493129	0.436906203
1.792265	0.077121305	4707.448468	51.26285751	0.087993177	0.258804998	-1.572398456	74.28756285	0.444770515
1.80205	0.077979856	4760.89459	51.26739331	0.088494937	0.260283296	-1.556176425	75.36636391	0.45194351
1.811835	0.078843278	4814.640161	51.27190759	0.088996738	0.261761758	-1.53873252	76.4512308	0.458369321
1.82162	0.07971157	4868.685082	51.27639992	0.08949858	0.263240385	-1.520076245	77.54205903	0.463991797
1.831405	0.080584732	4923.029255	51.28086986	0.090000464	0.264719177	-1.500219247	78.63874343	0.46875473
1.84119	0.081462765	4977.672579	51.28531698	0.090502388	0.266198133	-1.479175343	79.7411785	0.472602092
1.850975	0.082345669	5032.614954	51.28974081	0.091004353	0.267677252	-1.456960542	80.84925862	0.475478301
1.86076	0.083233444	5087.856278	51.29414091	0.091506359	0.269156535	-1.433593072	81.96287837	0.477328482
1.870545	0.084126091	5143.396446	51.29851682	0.092008405	0.270635981	-1.409093396	83.08193279	0.478098766
1.88033	0.085023609	5199.235356	51.30286809	0.092510491	0.27211559	-1.383484228	84.20631775	0.47773658
1.890115	0.085925998	5255.372899	51.30719426	0.093012617	0.273595362	-1.356790548	85.33593021	0.476190969
1.8999	0.086833259	5311.808971	51.31149487	0.093514782	0.275075296	-1.329039605	86.47066861	0.473412918
1.909685	0.087745393	5368.543463	51.31576947	0.094016988	0.276555392	-1.300260929	87.61043318	0.469355695
1.91947	0.088662398	5425.576265	51.3200176	0.094519232	0.278035649	-1.270486333	88.75512633	0.463975194
1.929255	0.089584276	5482.907268	51.32423882	0.095021516	0.279516068	-1.239749909	89.90465301	0.457230295
1.93904	0.090511027	5540.53636	51.32843267	0.095523839	0.280996649	-1.208088023	91.05892109	0.449083229
1.948825	0.09144265	5598.463429	51.33259873	0.096026201	0.28247739	-1.175539313	92.2178417	0.439499949
1.95861	0.092379147	5656.688361	51.33673655	0.096528602	0.283958292	-1.142144672	93.3813297	0.428450498
1.968395	0.093320516	5715.211041	51.34084573	0.097031041	0.285439354	-1.107947234	94.54930396	0.415909388
1.97818	0.094266759	5774.031353	51.34492584	0.097533518	0.286920577	-1.072992357	95.72168784	0.401855975
1.987965	0.095217876	5833.14918	51.34897648	0.098036034	0.288401959	-1.037327602	96.89840949	0.386274822
1.99775	0.096173867	5892.564404	51.35299728	0.098538587	0.289883501	-1.001002701	98.0794023	0.369156067
2.007535	0.097134731	5952.277289	51.35782936	0.099041182	0.291365212	-0.964069533	99.26460523	0.350495777
2.01732	0.098100471	6012.288589	51.36288257	0.099543824	0.292847113	-0.926582081	100.4539634	0.330296281
2.027105	0.099071085	6072.59824	51.36790534	0.100046515	0.294329204	-0.8885964	101.6474282	0.308566501
2.03689	0.100046573	6133.206138	51.37289735	0.100549254	0.295811485	-0.850170574	102.8449578	0.285322252
2.046675	0.101026938	6194.112177	51.37785829	0.101052041	0.297293956	-0.811364663	104.0465169	0.260586526
2.05646	0.102012178	6255.316253	51.38278788	0.101554875	0.298776617	-0.772240658	105.2520777	0.234389743
2.066245	0.103002294	6316.818258	51.38768588	0.102057757	0.300259467	-0.732862417	106.4616194	0.206769971
2.07603	0.103997287	6378.618083	51.39255204	0.102560686	0.301742506	-0.693295605	107.6751291	0.177773117
2.085815	0.104997156	6440.715619	51.39738616	0.103063663	0.303225735	-0.653607624	108.8926013	0.147453072
2.0956	0.106001903	6503.110755	51.40218806	0.103566686	0.304709152	-0.613867535	110.1140385	0.11587181
2.105385	0.107011527	6565.803378	51.40695758	0.104069757	0.306192758	-0.57414598	111.3394512	0.083099451
2.11517	0.108026029	6628.793374	51.41169462	0.104572874	0.307676552	-0.534515091	112.5688574	0.049214257
2.124955	0.109045409	6692.080628	51.41639907	0.105076038	0.309160534	-0.495048395	113.8022835	0.014302587
2.13474	0.110069668	6755.665023	51.42107087	0.105579248	0.310644704	-0.455820705	115.0397634	-0.02154122
2.144525	0.111098806	6819.546441	51.42571001	0.106082504	0.312129062	-0.416908016	116.2813386	-0.058215011
2.15431	0.112132824	6883.724761	51.43031648	0.106585806	0.313613606	-0.378387375	117.5270581	-0.095609066
2.164095	0.113171721	6948.199864	51.43489034	0.107089155	0.315098338	-0.340336757	118.7769779	-0.133606401
2.17388	0.114215499	7012.971625	51.43943165	0.107592548	0.316583257	-0.302834921	120.0311608	-0.172083146
2.183665	0.115264157	7078.039921	51.44394053	0.108095988	0.318068362	-0.265961262	121.2896761	-0.210908998
2.19345	0.116317696	7143.404625	51.44841714	0.108599472	0.319553654	-0.229795647	122.5525984	-0.249947743
2.203235	0.117376117	7209.065609	51.45286166	0.109103002	0.321039131	-0.194418246	123.8200081	-0.289057853
2.21302	0.118439419	7275.022745	51.45727431	0.109606577	0.322524794	-0.159909345	125.0919898	-0.328093163
2.222805	0.119507604	7341.275901	51.46165535	0.110110196	0.324010643	-0.126349155	126.368632	-0.366903608
2.23259	0.120580672	7407.824945	51.46600509	0.11061386	0.325496676	-0.093817599	127.6500263	-0.405336046
2.242375	0.121658623	7474.669743	51.47032387	0.111117569	0.326982895	-0.062394096	128.9362665	-0.443235135
2.25216	0.122741457	7541.810157	51.47461204	0.111621321	0.328469297	-0.032157326	130.2274476	-0.480444283
2.261945	0.123829176	7609.246051	51.47887004	0.112125118	0.329955884	-0.003184988	131.5236648	-0.516806651
2.27173	0.124921778	7676.977285	51.48309829	0.112628958	0.331442655	0.024446461	132.8250126	-0.552166215
2.281515	0.126019266	7745.003717	51.48729729	0.113132842	0.332929609	0.050662072	134.1315837	-0.586368864
2.2913	0.12712164	7813.325206	51.49146754	0.113636769	0.334416746	0.075388691	135.4434677	-0.619263544
2.301085	0.128228899	7881.941605	51.4956096	0.11414074	0.335904065	0.098555247	136.7607501	-0.650703423
2.31087	0.129341044	7950.85277	51.49972405	0.114644753	0.337391567	0.120093058	138.0835111	-0.680547073
2.320655	0.130458076	8020.058551	51.50381149	0.115148809	0.338879251	0.139936145	139.4118245	-0.708659661
2.33044	0.131579996	8089.558799	51.50787256	0.115652908	0.340367117	0.158021556	140.7457565	-0.734914124
2.340225	0.132706803	8159.353362	51.51190794	0.116157049	0.341855163	0.174289698	142.0853645	-0.759192324
2.35001	0.133838498	8229.442088	51.51591831	0.116661232	0.343343391	0.188684671	143.4306958	-0.781386169
2.359795	0.134975082	8299.824822	51.51990438	0.117165456	0.344831799	0.201154614	144.7817872	-0.801398676
2.36958	0.136116555	8370.501407	51.5238669	0.117669723	0.346320386	0.21165205	146.1386634	-0.819144962
2.379365	0.137262918	8441.471686	51.52780661	0.118174031	0.347809154	0.220134232	147.5013362	-0.834553157
2.38915	0.138414171	8512.735499	51.53172429	0.118678379	0.3492981	0.22656349	148.8698042	-0.847565207
2.398935	0.139570314	8584.292685	51.53562072	0.119182769	0.350787226	0.230907573	150.2440513	-0.858137563
2.40872	0.140731348	8656.143083	51.5394967	0.1196872	0.352276529	0.233139983	151.624047	-0.866241725
2.418505	0.141897273	8728.286528	51.54335303	0.120191671	0.353766011	0.233240306	153.0097454	-0.871864652
2.42829	0.143068091	8800.722856	51.54719052	0.120696182	0.35525567	0.231194525	154.4010852	-0.875008987
2.438075	0.144243801	8873.4519	51.55100999	0.121200734	0.356745506	0.226995316	155.7979898	-0.87569312
2.44786	0.145424404	8946.473492	51.55481224	0.121705325	0.358235519	0.220642339	157.2003671	-0.873951056
2.457645	0.1466099	9019.787464	51.5585981	0.122209956	0.359725709	0.212142487	158.6081102	-0.869832082
2.46743	0.147800289	9093.393645	51.56236836	0.122714626	0.361216074	0.201510125	160.0210977	-0.863400242
2.477215	0.148995573	9167.291865	51.56612382	0.123219335	0.362706615	0.188767296	161.4391945	-0.854733587
2.487	0.150195752	9241.481951	51.56986528	0.123724084	0.364197331	0.173943891	162.8622526	-0.843923241
2.496785	0.151400826	9315.96373	51.57359351	0.124228871	0.365688221	0.157077784	164.2901127	-0.831072241
2.50657	0.152610795	9390.737308	51.57789537	0.124733698	0.367179292	0.138214933	165.7226051	-0.8162942
2.516355	0.153825661	9465.803462	51.58247261	0.125238572	0.368670561	0.117409429	167.1595514	-0.799711772
2.52614	0.155045423	9541.162093	51.5870392	0.125743492	0.370162028	0.094723507	168.6007666	-0.781454958
2.535925	0.156270082	9616.813038	51.59159583	0.126248459	0.371653694	0.070227503	170.0460604	-0.761659261
2.54571	0.157499638	9692.756136	51.59614317	0.126753472	0.373145558	0.043999764	171.495239	-0.740463713
2.555495	0.158734093	9768.991222	51.60068187	0.127258531	0.37463762	0.016126504	172.9481078	-0.71800881
2.56528	0.159973446	9845.518133	51.60521251	0.127763636	0.37612988	-0.0132984	174.4044731	-0.69443438
2.575065	0.161217699	9922.336704	51.60973569	0.128268787	0.377622337	-0.044173663	175.8641441	-0.669877423
2.58485	0.162466851	9999.446768	51.61425194	0.128773983	0.379114991	-0.076390907	177.3269354	-0.64446996
2.594635	0.163720902	10076.84816	51.61876176	0.129279224	0.380607842	-0.10983503	178.7926691	-0.618336928
2.60442	0.164979855	10154.54071	51.62326563	0.12978451	0.382100889	-0.144384638	180.2611763	-0.59159417
2.614205	0.166243708	10232.52425	51.62776397	0.130289842	0.383594132	-0.179912525	181.7322997	-0.564346559
2.62399	0.167512462	10310.79862	51.63225717	0.130795218	0.385087571	-0.216286214	183.2058947	-0.536686301
2.633775	0.168786119	10389.36364	51.63674557	0.131300638	0.386581206	-0.253368543	184.6818312	-0.508691451
2.64356	0.170064677	10468.21913	51.64122947	0.131806104	0.388075036	-0.291018304	186.1599947	-0.480424702
2.653345	0.171348138	10547.36494	51.64570914	0.132311613	0.389569062	-0.32909092	187.6402873	-0.45193246
2.66313	0.172636502	10626.80088	51.65018479	0.132817166	0.391063282	-0.367439166	189.1226282	-0.423244259
2.672915	0.17392977	10706.52678	51.65465658	0.133322763	0.392557697	-0.405913924	190.6069539	-0.394372528
2.6827	0.175227941	10786.54247	51.65912463	0.133828404	0.394052307	-0.444364957	192.0932181	-0.365312752
2.692485	0.176531016	10866.84777	51.66358901	0.134334089	0.39554711	-0.482641715	193.5813914	-0.336044022
2.70227	0.177838996	10947.4425	51.66804975	0.134839817	0.397042108	-0.520594144	195.0714599	-0.306530002
2.712055	0.179151881	11028.32648	51.67250682	0.135345588	0.3985373	-0.558073509	196.5634241	-0.276720295
2.72184	0.180469671	11109.49954	51.67696016	0.135851402	0.400032685	-0.594933208	198.0572971	-0.246552225
2.731625	0.181792367	11190.96149	51.68140963	0.136357259	0.401528264	-0.631029579	199.5531025	-0.215952987
2.74141	0.183119968	11272.71214	51.68585507	0.136863159	0.403024036	-0.666222686	201.0508719	-0.184842172
2.751195	0.184452476	11354.75132	51.69029625	0.137369102	0.40452	-0.700377075	202.5506419	-0.153134603
2.76098	0.18578989	11437.07884	51.69473292	0.137875087	0.406016158	-0.733362501	204.0524513	-0.120743468
2.770765	0.187132211	11519.69451	51.69916474	0.138381114	0.407512507	-0.765054604	205.5563375	-0.087583665
2.78055	0.188479439	11602.59815	51.70359135	0.138887183	0.409009049	-0.795335536	207.0623332	-0.053575338
2.790335	0.189831575	11685.78955	51.70801234	0.139393294	0.410505783	-0.82409453	208.5704626	-0.018647505
2.80012	0.191188618	11769.26854	51.71242725	0.139899447	0.412002709	-0.851228402	210.0807378	0.017258272
2.809905	0.192550569	11853.03491	51.71683557	0.140405641	0.413499826	-0.876641991	211.5931555	0.054184254
2.81969	0.193917428	11937.08848	51.72123675	0.140911877	0.414997134	-0.900248509	213.1076932	0.092153018
2.829475	0.195289195	12021.42904	51.72563018	0.141418153	0.416494633	-0.921969832	214.6243057	0.131164144
2.83926	0.196665872	12106.0564	51.73001523	0.141924471	0.417992323	-0.941736697	216.1429228	0.171191177
2.849045	0.198047457	12190.97036	51.73439122	0.14243083	0.419490202	-0.959488831	217.663446	0.212178954
2.85883	0.199433951	12276.17071	51.73875743	0.142937229	0.420988272	-0.975174989	219.1857464	0.254041353
2.868615	0.200825354	12361.65725	51.74311309	0.143443669	0.422486532	-0.988752926	220.7096634	0.296659549
2.8784	0.202221667	12447.42979	51.74745742	0.143950148	0.423984981	-1.000189288	222.2350028	0.339880838
2.888185	0.20362289	12533.4881	51.75178958	0.144456668	0.425483619	-1.009459442	223.761537	0.383518074
2.89797	0.205029022	12619.83199	51.75610871	0.144963228	0.426982446	-1.016547238	225.2890046	0.427349774
2.907755	0.206440065	12706.46125	51.76041392	0.145469828	0.428481462	-1.021444723	226.8171113	0.471120926
2.91754	0.207856017	12793.37566	51.76470429	0.145976466	0.429980666	-1.024151807	228.3455317	0.514544515
2.927325	0.209276881	12880.57501	51.76897888	0.146483145	0.431480057	-1.024675892	229.8739111	0.557303773
2.93711	0.210702655	12968.05909	51.77323672	0.146989862	0.432979637	-1.023031486	231.401869	0.599055162
2.946895	0.21213334	13055.82769	51.77747684	0.147496618	0.434479403	-1.019239791	232.9290021	0.639432041
2.95668	0.213568936	13143.88059	51.78169822	0.148003413	0.435979357	-1.013328301	234.4548892	0.678049014
2.966465	0.215009443	13232.21757	51.78589987	0.148510246	0.437479497	-1.005330406	235.9790959	0.714506872
2.97625	0.216454861	13320.83841	51.79008074	0.149017117	0.438979823	-0.995285013	237.5011799	0.748398086
2.986035	0.217905191	13409.74289	51.79423981	0.149524027	0.440480335	-0.983236207	239.020697	0.77931276
2.99582	0.219360433	13498.9308	51.79837605	0.150030975	0.441981034	-0.969232947	240.5372077	0.806844937
3.005605	0.220820587	13588.40211	51.80289634	0.150537961	0.44348192	-0.953328818	242.0502832	0.830599178
3.01539	0.222285653	13678.15755	51.80769617	0.151044991	0.444983011	-0.935581834	243.5595126	0.850197257
3.025175	0.223755631	13768.19702	51.81247033	0.151552066	0.446484307	-0.916054309	245.0645092	0.865284888
3.03496	0.225230522	13858.52031	51.81721781	0.152059184	0.447985808	-0.894812786	246.5649173	0.875538305
3.044745	0.226710325	13949.1272	51.82193761	0.152566347	0.449487514	-0.871928046	248.0604182	0.880670602
3.05453	0.228195042	14040.01748	51.82662872	0.153073553	0.450989424	-0.847475163	249.5507363	0.880437671
3.064315	0.229684672	14131.19093	51.8312902	0.153580803	0.452491538	-0.821533632	251.035644	0.874643607
3.0741	0.231179216	14222.64735	51.83592109	0.154088096	0.453993857	-0.794187546	252.5149672	0.86314546
3.083885	0.232678674	14314.3865	51.84052049	0.154595433	0.455496379	-0.765525819	253.9885885	0.845857217
3.09367	0.234183046	14406.40818	51.84508752	0.155102812	0.456999105	-0.735642436	255.4564506	0.822752896
3.103455	0.235692333	14498.71215	51.84962136	0.155610235	0.458502034	-0.704636725	256.9185585	0.793868672
3.11324	0.237206534	14591.29821	51.85412122	0.1561177	0.460005166	-0.672613635	258.3749803	0.759303967
3.123025	0.23872565	14684.16613	51.85858637	0.156625207	0.4615085	-0.639683988	259.8258475	0.719221441
3.13281	0.240249681	14777.31569	51.86301615	0.157132757	0.463012037	-0.605964711	261.2713535	0.673845867
3.142595	0.241778629	14870.74667	51.86740996	0.157640349	0.464515777	-0.571579002	262.7117517	0.623461891
3.15238	0.243312492	14964.45883	51.87176726	0.158147983	0.466019718	-0.536656437	264.147352	0.568410686
3.162165	0.244851271	15058.45196	51.8760876	0.158655659	0.467523861	-0.501332977	265.5785166	0.509085565
3.17195	0.246394967	15152.72583	51.88037062	0.159163377	0.469028206	-0.465750871	267.0056545	0.445926626
3.181735	0.24794358	15247.2802	51.88461603	0.159671136	0.470532752	-0.430058432	268.4292153	0.379414527
3.19152	0.24949711	15342.11485	51.88882367	0.160178936	0.472037499	-0.394409684	269.8496826	0.310063522
3.201305	0.251055557	15437.22956	51.89299345	0.160686777	0.473542447	-0.358963847	271.2675661	0.238413899
3.21109	0.252618923	15532.62407	51.89712539	0.16119466	0.475047595	-0.323884682	272.6833939	0.165024003
3.220875	0.254187206	15628.29817	51.90121964	0.161702583	0.476552944	-0.289339662	274.0977043	0.090461995
3.23066	0.255760409	15724.25161	51.90527645	0.162210547	0.478058493	-0.255499	275.5110375	0.015297575
3.240445	0.25733853	15820.48417	51.90929617	0.162718551	0.479564242	-0.222534512	276.9239277	-0.059906164
3.25023	0.258921571	15916.99559	51.91327928	0.163226596	0.481070191	-0.190618342	278.336895	-0.134600533
3.260015	0.260509532	16013.78564	51.91722637	0.163734681	0.482576339	-0.159921562	279.7504388	-0.208258512
3.2698	0.262102412	16110.85408	51.92113816	0.164242805	0.484082686	-0.130612654	281.1650304	-0.280381293
3.279585	0.263700214	16208.20066	51.92501545	0.16475097	0.485589232	-0.102855914	282.5811085	-0.350503937
3.28937	0.265302936	16305.82514	51.92885916	0.165259174	0.487095976	-0.076809788	283.9990736	-0.418200002
3.299155	0.26691058	16403.72726	51.93267032	0.165767417	0.488602918	-0.052625189	285.4192852	-0.48308502
3.30894	0.268523145	16501.90679	51.93645004	0.166275699	0.490110059	-0.030443805	286.8420592	-0.544818733
3.318725	0.270140633	16600.36347	51.94019952	0.166784021	0.491617397	-0.010396458	288.2676672	-0.603106051
3.32851	0.271763044	16699.09704	51.94392004	0.167292381	0.493124932	0.007398478	289.6963366	-0.657696711
3.338295	0.273390377	16798.10725	51.94761294	0.16780078	0.494632665	0.022836535	291.1282526	-0.708383666
3.34808	0.275022635	16897.39385	51.95127963	0.168309217	0.496140594	0.035828479	292.5635604	-0.755000291
3.357865	0.276659816	16996.95658	51.95492154	0.168817692	0.497648719	0.046301456	294.0023695	-0.797416515
3.36765	0.278301921	17096.79513	51.9584182	0.169326205	0.49915704	0.054199608	295.4447344	-0.835532287
3.377435	0.279948952	17196.9093	51.96223388	0.169834756	0.500665557	0.059485833	296.8907418	-0.869277964
3.38722	0.281600907	17297.29925	51.96603193	0.170343346	0.502174275	0.062142486	298.3406657	-0.898616178
3.397005	0.283257789	17397.96473	51.96981387	0.170851977	0.503683195	0.062166634	299.7945256	-0.923504687
3.40679	0.284919597	17498.90548	51.9735812	0.171360646	0.505192316	0.059574039	301.2523334	-0.9439092
3.416575	0.286586331	17600.12125	51.97733542	0.171869355	0.506701638	0.054398879	302.7140993	-0.959797576
3.42636	0.288257993	17701.61176	51.98107798	0.172378102	0.50821116	0.046693203	304.1798371	-0.971134617
3.436145	0.289934582	17803.37678	51.9848103	0.172886889	0.509720883	0.036526134	305.6495681	-0.977877758
3.44593	0.291616099	17905.41603	51.98853373	0.173395714	0.511230806	0.023982838	307.1233248	-0.979973896
3.455715	0.293302544	18007.72925	51.99224958	0.173904577	0.512740929	0.009163297	308.601152	-0.977357604
3.4655	0.294993919	18110.31619	51.99595909	0.174413479	0.514251252	-0.00781909	310.0831076	-0.969950889
3.475285	0.296690223	18213.17657	51.99966343	0.174922419	0.515761774	-0.02683904	311.5692608	-0.957664649
3.48507	0.298391457	18316.31014	52.00336369	0.175431396	0.517272495	-0.047760998	313.0596892	-0.940401869
3.494855	0.30009762	18419.71664	52.00706088	0.175940412	0.518783416	-0.070440792	314.5544735	-0.918062576
3.50464	0.301808715	18523.39594	52.01103904	0.176449466	0.520294537	-0.094727277	316.0536915	-0.890550444
3.514425	0.30352474	18627.34869	52.01532999	0.176958563	0.521805872	-0.120463927	317.5574095	-0.857780912
3.52421	0.305245697	18731.5748	52.01962067	0.177467702	0.523317422	-0.147490321	319.0656735	-0.819690567
3.533995	0.306971586	18836.07403	52.02391178	0.177976885	0.524829188	-0.17564349	320.5784984	-0.776247486
3.54378	0.308702407	18940.84611	52.02820391	0.17848611	0.526341169	-0.204759081	322.0958577	-0.727462172
3.553565	0.310438161	19045.89079	52.03249761	0.178995378	0.527853365	-0.23467232	323.6176717	-0.673398642
3.56335	0.312178849	19151.20781	52.03679333	0.179504689	0.529365777	-0.265218744	325.1437975	-0.614185213
3.573135	0.313924469	19256.79691	52.04109145	0.180014042	0.530878403	-0.296234697	326.6740188	-0.550024484
3.58292	0.315675024	19362.65783	52.04539228	0.180523438	0.532391244	-0.327557592	328.2080372	-0.48120202
3.592705	0.317430513	19468.79031	52.04969604	0.181032875	0.5339043	-0.359025941	329.7454653	-0.408093253
3.60249	0.319190937	19575.19409	52.05400291	0.181542355	0.53541757	-0.390479194	331.2858225	-0.331168154
3.612275	0.320956296	19681.86891	52.05831296	0.182051876	0.536931054	-0.421757398	332.8285323	-0.250993266
3.62206	0.32272659	19788.8145	52.06262622	0.18256144	0.538444753	-0.452700735	334.372924	-0.168230794
3.631845	0.32450182	19896.0306	52.06694264	0.183071044	0.539958665	-0.483148986	335.9182361	-0.08363452
3.64163	0.326281986	20003.51694	52.07126208	0.183580691	0.541472792	-0.512940979	337.4636238	0.00195759
3.651415	0.328067088	20111.27326	52.07558434	0.184090378	0.542987132	-0.54191408	339.0081701	0.087634073
3.6612	0.329857127	20219.29928	52.07990912	0.184600107	0.544501686	-0.569903801	340.5508987	0.172423831
3.670985	0.331652103	20327.59475	52.08423603	0.185109877	0.546016454	-0.596743581	342.0907916	0.255312919
3.68077	0.333452016	20436.15938	52.08856462	0.185619688	0.547531434	-0.622264804	343.6268076	0.335263868
3.690555	0.335256867	20544.9929	52.0928943	0.186129539	0.549046629	-0.646297109	345.1579037	0.411237041
3.70034	0.337066655	20654.09505	52.0972244	0.186639431	0.550562036	-0.668669034	346.683058	0.482213431
3.710125	0.338881382	20763.46555	52.10155412	0.187149364	0.552077656	-0.68920903	348.2012927	0.547218187
3.71991	0.340701046	20873.10411	52.10588256	0.187659337	0.553593489	-0.70774686	349.7116977	0.605344133
3.729695	0.342525649	20983.01046	52.11020866	0.18816935	0.555109534	-0.724115383	351.2134529	0.655774476
3.73948	0.344355191	21093.18433	52.11453127	0.188679403	0.556625792	-0.738152716	352.7058493	0.697803914
3.749265	0.346189672	21203.62542	52.11884908	0.189189496	0.558142262	-0.749704723	354.1883077	0.730857377
3.75905	0.348029091	21314.33347	52.12316066	0.189699628	0.559658945	-0.758627804	355.6603939	0.754505698
3.768835	0.34987345	21425.30817	52.12746443	0.190209801	0.561175839	-0.764791881	357.121831	0.768477588
3.77862	0.351722749	21536.54926	52.13175868	0.190720012	0.562692945	-0.768083537	358.5725066	0.772667442
3.788405	0.353576987	21648.05644	52.13604159	0.191230263	0.564210262	-0.768409172	360.0124766	0.767138601
3.79819	0.355436165	21759.82942	52.14031121	0.191740553	0.565727791	-0.765698103	361.4419634	0.752121903
3.807975	0.357300283	21871.86792	52.14456551	0.192250882	0.567245531	-0.759905472	362.8613496	0.728009507
3.81776	0.359169341	21984.17164	52.14880234	0.19276125	0.568763482	-0.751014873	364.2711678	0.695344151
3.827545	0.36104334	22096.7403	52.15301951	0.193271657	0.570281644	-0.739040568	365.6720853	0.654804196
3.83733	0.362922279	22209.5736	52.15721478	0.193782102	0.571800017	-0.724029214	367.0648856	0.60718497
3.847115	0.36480616	22322.67126	52.16138591	0.194292585	0.5733186	-0.706060998	368.4504473	0.553377056
3.8569	0.366694981	22436.03298	52.16553066	0.194803106	0.574837393	-0.685250121	369.8297196	0.494342325
3.866685	0.368588743	22549.65846	52.16964683	0.195313666	0.576356397	-0.661744584	371.2036976	0.431088557
3.87647	0.370487447	22663.54741	52.17373231	0.195824263	0.577875611	-0.635725238	372.5733965	0.364643607
3.886255	0.372391092	22777.69954	52.17778509	0.196334899	0.579395034	-0.607404116	373.9398264	0.296030027
3.89604	0.37429968	22892.11456	52.1818033	0.196845572	0.580914668	-0.577022063	375.3039686	0.226241096
3.905825	0.376213209	23006.79216	52.18578525	0.197356282	0.582434511	-0.544845718	376.6667538	0.156219081
3.91561	0.378131681	23121.73205	52.18972945	0.19786703	0.583954564	-0.511163923	378.0290438	0.086836526
3.925395	0.380055095	23236.93393	52.19363461	0.198377815	0.585474826	-0.476283658	379.3916164	0.01888116
3.93518	0.381983452	23352.3975	52.19749972	0.198888637	0.586995297	-0.440525622	380.7551546	-0.046955094
3.944965	0.383916753	23468.12246	52.20132402	0.199399496	0.588515978	-0.404219577	382.1202399	-0.110082724
3.95475	0.385854996	23584.10852	52.20510701	0.199910392	0.590036867	-0.367699603	383.4873503	-0.170016786
3.964535	0.387798184	23700.35537	52.2088485	0.200421325	0.591557966	-0.331299389	384.8568624	-0.226374715
3.97432	0.389746315	23816.86271	52.21254856	0.200932294	0.593079274	-0.295347716	386.2290575	-0.278870124
3.984105	0.391699391	23933.63024	52.21620758	0.2014433	0.59460079	-0.260164228	387.6041315	-0.327303097
3.99389	0.393657411	24050.65764	52.21982618	0.201954341	0.596122515	-0.22605562	388.9822071	-0.371547668
4.003675	0.395620376	24167.94469	52.22359564	0.20246542	0.597644449	-0.193312324	390.3633481	-0.41153728
4.01346	0.397588287	24285.49197	52.22764337	0.202976539	0.599166604	-0.162205758	391.7475755	-0.447249161
4.023245	0.399561143	24403.29939	52.23165434	0.203487698	0.600688981	-0.132986165	393.1348826	-0.478688573
4.03303	0.401538946	24521.36665	52.23563015	0.203998898	0.602211582	-0.10588106	394.5252501	-0.505873914
4.042815	0.403521695	24639.69345	52.23957258	0.204510139	0.603734405	-0.081094257	395.9186586	-0.528823604
4.0526	0.405509391	24758.27948	52.2434836	0.20502142	0.60525745	-0.058805417	397.3150997	-0.547545576
4.062385	0.407502035	24877.12443	52.24736528	0.205532741	0.606780718	-0.039170054	398.7145825	-0.562030075
4.07217	0.409499626	24996.22799	52.25121982	0.206044103	0.608304208	-0.022319892	400.1171374	-0.572246238
4.081955	0.411502166	25115.58984	52.25504952	0.206555505	0.60982792	-0.008363468	401.5228151	-0.578142745
4.09174	0.413509655	25235.20968	52.25885672	0.207066946	0.611351853	0.002613137	402.9316824	-0.579652553
4.101525	0.415522094	25355.08719	52.26264382	0.207578427	0.612876009	0.010545564	404.343813	-0.576701471
4.11131	0.417539482	25475.22205	52.26641324	0.208089948	0.614400385	0.015390546	405.7592763	-0.569220093
4.121095	0.41956182	25595.61394	52.2701674	0.208601508	0.615924983	0.017125473	407.1781227	-0.557158339
4.13088	0.421589109	25716.26255	52.27390871	0.209113107	0.617449803	0.015748238	408.6003673	-0.540501676
4.140665	0.42362135	25837.16755	52.27763952	0.209624745	0.618974843	0.011277409	410.0259737	-0.519287899
4.15045	0.425658542	25958.32862	52.28136218	0.210136422	0.620500103	0.003752731	411.4548374	-0.493623285
4.160235	0.427700686	26079.74545	52.28507893	0.210648138	0.622025585	-0.006764043	412.886772	-0.463696873
4.17002	0.429747783	26201.4177	52.28879196	0.211159892	0.623551286	-0.02018806	414.3214982	-0.429791679
4.179805	0.431799833	26323.34505	52.29250337	0.211671685	0.625077208	-0.036410098	415.7586363	-0.392291769
4.18959	0.433856836	26445.52719	52.29621513	0.212183516	0.62660335	-0.05529523	417.1977045	-0.351684295
4.199375	0.435918793	26567.96378	52.29992912	0.212695385	0.628129712	-0.076681573	418.6381225	-0.308555892
4.20916	0.437985705	26690.65451	52.30364707	0.213207293	0.629656294	-0.100379271	420.0792207	-0.263583092
4.218945	0.440057572	26813.59904	52.30737057	0.213719238	0.631183095	-0.126169879	421.5202561	-0.217516815
4.22873	0.442134393	26936.79706	52.31110105	0.214231221	0.632710116	-0.153806311	422.9604326	-0.171161347
4.238515	0.444216171	27060.24823	52.31483976	0.214743241	0.634237356	-0.18301349	424.3989271	-0.125348574
4.2483	0.446302904	27183.95224	52.31858776	0.215255299	0.635764816	-0.213489835	425.8349181	-0.080908609
4.258085	0.448394593	27307.90875	52.32234591	0.215767394	0.637292495	-0.244909661	427.2676175	-0.038638222
4.26787	0.45049124	27432.11743	52.32611485	0.216279527	0.638820393	-0.276926537	428.6963023	0.000731282
4.277655	0.452592843	27556.57797	52.329895	0.216791696	0.64034851	-0.309177614	430.1203453	0.03656496
4.28744	0.454699403	27681.29003	52.33368653	0.217303903	0.641876846	-0.341288837	431.5392427	0.068352111
4.297225	0.456810922	27806.25328	52.33748936	0.217816146	0.643405401	-0.372880958	432.9526369	0.095729403
4.30701	0.458927398	27931.46739	52.34130317	0.218328426	0.644934175	-0.403576179	434.3603337	0.118497713
4.316795	0.461048832	28056.93203	52.34512736	0.218840743	0.646463168	-0.433005204	435.762311	0.136631463
4.32658	0.463175225	28182.64687	52.34896108	0.219353096	0.647992379	-0.460814485	437.1587202	0.150279577
4.336365	0.465306577	28308.61158	52.35280323	0.219865486	0.649521809	-0.486673374	438.5498779	0.159757682
4.34615	0.467442887	28434.82582	52.35665246	0.220377911	0.651051457	-0.510280903	439.9362503	0.165531662
4.355935	0.469584157	28561.28925	52.36050718	0.220890373	0.652581324	-0.531371935	441.3184281	0.168193155
4.36572	0.471730386	28688.00153	52.36436558	0.221402871	0.654111409	-0.549722401	442.6970959	0.168428131
4.375505	0.473881575	28814.96234	52.36822566	0.221915405	0.655641712	-0.565153432	444.0729955	0.166980072
4.38529	0.476037724	28942.17132	52.37208524	0.222427974	0.657172233	-0.577534181	445.4468857	0.164609673
4.395075	0.478198833	29069.62813	52.37594202	0.222940579	0.658702973	-0.586783248	446.819501	0.162053216
4.40486	0.480364901	29197.33244	52.37979357	0.223453219	0.66023393	-0.592868634	448.1915116	0.159981906
4.414645	0.482535931	29325.2839	52.38363739	0.223965895	0.661765105	-0.595806256	449.563486	0.158964458
4.42443	0.48471192	29453.48216	52.38747095	0.224478606	0.663296497	-0.595657117	450.9358593	0.159435073
4.434215	0.486892871	29581.92687	52.39129169	0.224991352	0.664828107	-0.592523287	452.3089085	0.161668677
4.444	0.489078782	29710.6177	52.39509712	0.225504133	0.666359935	-0.586542912	453.6827369	0.165764893
4.453785	0.491269654	29839.55429	52.39888479	0.226016948	0.66789198	-0.577884519	455.0572677	0.171641768
4.46357	0.493465488	29968.73629	52.40265235	0.226529798	0.669424242	-0.56674091	456.4322476	0.179039654
4.473355	0.495666283	30098.16335	52.40639759	0.227042683	0.670956721	-0.553322967	457.8072613	0.187535137
4.48314	0.497872039	30227.83513	52.41011841	0.227555602	0.672489418	-0.537853657	459.1817539	0.196564242
4.492925	0.500082757	30357.75126	52.41381291	0.228068556	0.674022331	-0.520562537	460.5550622	0.20545364
4.50271	0.502298438	30487.91144	52.41760034	0.228581543	0.675555462	-0.501680994	461.9264516	0.213458064
4.512495	0.50451908	30618.31613	52.42167412	0.229094568	0.677088818	-0.48143841	463.2951576	0.219801795
4.52228	0.506744685	30748.96527	52.42571709	0.229607631	0.678622404	-0.460059364	464.6604284	0.223721784
4.532065	0.508975252	30879.85851	52.4297281	0.230120733	0.68015622	-0.437761924	466.0215668	0.224509925
4.54185	0.511210782	31010.99551	52.43370619	0.230633872	0.681690264	-0.414756985	467.377969	0.221551992
4.551635	0.513451275	31142.37592	52.43765061	0.231147048	0.683224537	-0.391248545	468.7291571	0.214361013
4.56142	0.515696732	31273.99938	52.44156083	0.231660263	0.68475904	-0.367434743	470.0748055	0.202603191
4.571205	0.517947153	31405.86556	52.44543649	0.232173515	0.686293772	-0.34350942	471.4147575	0.186114958
4.58099	0.520202537	31537.97409	52.44927746	0.232686804	0.687828732	-0.319663947	472.7490324	0.164910361
4.590775	0.522462886	31670.32462	52.45308381	0.233200131	0.689363921	-0.296089012	474.0778234	0.139178566
4.60056	0.5247282	31802.9168	52.45685582	0.233713495	0.690899339	-0.27297612	475.4014858	0.109271979
4.610345	0.526998479	31935.75028	52.46059398	0.234226896	0.692434986	-0.250518512	476.7205164	0.075686039
4.62013	0.529273723	32068.82469	52.464299	0.234740335	0.693970861	-0.228911335	478.0355275	0.039032314
4.629915	0.531553932	32202.13969	52.46797181	0.235253809	0.695506965	-0.208350896	479.3472154	6.96E-06
4.6397	0.533839108	32335.69491	52.47161354	0.235767321	0.697043298	-0.189032948	480.6563263	-0.04064313
4.649485	0.53612925	32469.48999	52.47522554	0.236280869	0.698579858	-0.171150031	481.9636237	-0.082154132
4.65927	0.538424359	32603.52457	52.47880936	0.236794454	0.700116648	-0.154887957	483.2698567	-0.123776566
4.669055	0.540724434	32737.79828	52.48236674	0.237308075	0.701653665	-0.140421633	484.5757334	-0.164802087
4.67884	0.543029478	32872.31077	52.48589958	0.237821732	0.703190911	-0.127910473	485.881901	-0.204584053
4.688625	0.545339489	33007.06167	52.48940993	0.238335426	0.704728384	-0.117493675	487.1889324	-0.242550754
4.69841	0.547654469	33142.05061	52.49289997	0.238849155	0.706266086	-0.109285709	488.4973204	-0.27821084
4.708195	0.549974417	33277.27723	52.49637197	0.23936292	0.707804016	-0.103372316	489.8074809	-0.311151145
4.71798	0.552299335	33412.74115	52.49982825	0.239876721	0.709342173	-0.09980733	491.1197604	-0.341027789
4.727765	0.554629222	33548.442	52.50327113	0.240390558	0.710880558	-0.098610559	492.4344514	-0.367552045
4.73755	0.556964079	33684.37942	52.50670296	0.24090443	0.712419171	-0.099766914	493.7518083	-0.390472947
4.747335	0.559303906	33820.55302	52.510126	0.241418337	0.713958011	-0.103226864	495.0720667	-0.409558936
4.75712	0.561648704	33956.96245	52.51354244	0.241932279	0.715497079	-0.108908222	496.3954597	-0.424580974
4.766905	0.563998473	34093.60731	52.51695436	0.242446257	0.717036374	-0.116699153	497.7222305	-0.435299464
4.77669	0.566353213	34230.48725	52.52036372	0.242960269	0.718575896	-0.126462197	499.0526404	-0.441457019
4.786475	0.568712925	34367.60189	52.5237723	0.243474316	0.720115646	-0.138039048	500.3869679	-0.442778613
4.79626	0.57107761	34504.95084	52.52718174	0.243988398	0.721655622	-0.151255729	501.7255007	-0.438979982
4.806045	0.573447267	34642.53373	52.53059348	0.244502515	0.723195826	-0.165927809	503.0685192	-0.429784373
4.81583	0.575821897	34780.3502	52.5340088	0.245016666	0.724736257	-0.181865282	504.416272	-0.414946877
4.825615	0.578201501	34918.39985	52.5374288	0.245530851	0.726276914	-0.198876757	505.7689461	-0.394284808
4.8354	0.580586078	35056.68231	52.5408544	0.246045071	0.727817799	-0.216772674	507.1266327	-0.367711817
4.845185	0.582975629	35195.19721	52.54428638	0.246559324	0.72935891	-0.235367345	508.4892931	-0.335272914
4.85497	0.585370154	35333.94416	52.54772534	0.247073612	0.730900248	-0.254479706	509.8567254	-0.297177162
4.864755	0.587769654	35472.92278	52.55117173	0.247587933	0.732441813	-0.273932816	511.2285383	-0.253824772
4.87454	0.590174129	35612.13271	52.55462586	0.248102289	0.733983605	-0.293552215	512.6041327	-0.205825449
4.884325	0.592583579	35751.57354	52.55808791	0.248616678	0.735525623	-0.313163412	513.9826948	-0.154005359
4.89411	0.594998005	35891.24491	52.56155789	0.2491311	0.737067868	-0.332588831	515.3632023	-0.09940076
4.903895	0.597417406	36031.14643	52.56503568	0.249645556	0.738610339	-0.351644636	516.7444451	-0.043237291
4.91368	0.599841783	36171.27772	52.56852099	0.250160045	0.740153037	-0.370137887	518.1250602	0.01310504
4.923465	0.602271137	36311.63839	52.57201336	0.250674567	0.741695962	-0.387864478	519.503579	0.068139973
4.93325	0.604705467	36452.22806	52.57551213	0.251189123	0.743239113	-0.404608262	520.8784861	0.120333975
4.943035	0.607144773	36593.04635	52.57901643	0.251703711	0.74478249	-0.420141702	522.2482855	0.168172819
4.95282	0.609589057	36734.09286	52.58252514	0.252218333	0.746326094	-0.434228263	523.6115697	0.210231766
4.962605	0.612038317	36875.36721	52.5860369	0.252732987	0.747869925	-0.446626633	524.9670891	0.245244885
4.97239	0.614492555	37016.869	52.58955009	0.253247674	0.749413981	-0.457096703	526.3138146	0.272168887
4.982175	0.61695177	37158.59786	52.59306277	0.253762393	0.750958264	-0.465407079	527.6509918	0.290237069
4.99196	0.619415963	37300.55338	52.59657276	0.254277145	0.752502773	-0.471343762	528.9781804	0.298999558
5.001745	0.621885133	37442.7352	52.60014541	0.254791929	0.754047509	-0.474719504	530.2952776	0.298346912
5.01153	0.624359282	37585.14362	52.60402264	0.255306748	0.755592478	-0.475383264	531.6025237	0.28851529
5.021315	0.626838408	37727.77864	52.60788921	0.255821603	0.757137684	-0.473229132	532.9004882	0.270072705
5.0311	0.629322513	37870.63985	52.61174204	0.256336493	0.758683128	-0.46820412	534.1900378	0.243887241
5.040885	0.631811597	38013.72688	52.61557795	0.256851419	0.760228808	-0.460314228	535.47229	0.211079393
5.05067	0.634305659	38157.03932	52.61939373	0.257366381	0.761774726	-0.449628335	536.7485524	0.172961875
5.060455	0.636804701	38300.5768	52.6231862	0.257881377	0.763320881	-0.436279576	538.0202554	0.130971054
5.07024	0.639308721	38444.33891	52.62695234	0.25839641	0.764867272	-0.420464033	539.2888801	0.086594747
5.080025	0.641817721	38588.32527	52.63068933	0.258911477	0.766413901	-0.402436758	540.5558884	0.041301273
5.08981	0.6443317	38732.53549	52.63439465	0.259426579	0.767960767	-0.382505333	541.8226582	-0.00352563
5.099595	0.646850659	38876.96916	52.63806615	0.259941717	0.76950787	-0.361021301	543.0904284	-0.046641954
5.10938	0.649374599	39021.6259	52.64170208	0.260456889	0.77105521	-0.338369991	544.360258	-0.086985558
5.119165	0.651903519	39166.50532	52.64530122	0.260972096	0.772602786	-0.314959308	545.6329983	-0.123703335
5.12895	0.654437419	39311.607	52.6488628	0.261487338	0.7741506	-0.291208141	546.9092818	-0.156162747
5.138735	0.6569763	39456.93057	52.65238663	0.262002614	0.775698651	-0.267535008	548.189526	-0.1839484
5.14852	0.659520163	39602.47562	52.655873	0.262517925	0.777246938	-0.244347533	549.473949	-0.206845499
5.158305	0.662069007	39748.24175	52.65932273	0.26303327	0.778795463	-0.222033212	550.7625967	-0.224813084
5.16809	0.664622832	39894.22856	52.66273712	0.263548649	0.780344224	-0.200951814	552.0553759	-0.23795061
5.177875	0.66718164	40040.43565	52.66611789	0.264064063	0.781893223	-0.181429596	553.3520897	-0.246461805
5.18766	0.669745431	40186.86262	52.66946718	0.26457951	0.783442458	-0.163755333	554.6524725	-0.250619717
5.197445	0.672314204	40333.50907	52.67278743	0.265094992	0.784991931	-0.148178019	555.9562203	-0.250736398
5.20723	0.674887961	40480.37458	52.67608138	0.265610507	0.78654164	-0.134905963	557.2630129	-0.247139939
5.217015	0.677466701	40627.45876	52.67935197	0.266126056	0.788091586	-0.124106884	558.5725279	-0.240160521
5.2268	0.680050425	40774.76119	52.68260233	0.266641639	0.789641769	-0.115908605	559.8844456	-0.230125955
5.236585	0.682639133	40922.28146	52.68583566	0.267157255	0.791192189	-0.110399904	561.1984441	-0.217365947
5.24637	0.685232826	41070.01918	52.68905524	0.267672905	0.792742846	-0.107631168	562.5141886	-0.202223198
5.256155	0.687831505	41217.97391	52.69226436	0.268188588	0.794293739	-0.107614586	563.8313166	-0.185068513
5.26594	0.690435168	41366.14526	52.69546623	0.268704304	0.795844869	-0.110323747	565.1494219	-0.166316515
5.275725	0.693043818	41514.53282	52.69866401	0.269220053	0.797396236	-0.115692675	566.4680424	-0.146438352
5.28551	0.695657454	41663.13616	52.70186072	0.269735835	0.79894784	-0.123614471	567.7866534	-0.12596802
5.295295	0.698276076	41811.95352	52.70230529	0.270251646	0.800499667	-0.133940357	569.1046727	-0.105498833
5.30508	0.700899685	41960.96582	52.69691278	0.270767425	0.80205154	-0.146484834	570.4214937	-0.085661014
5.314865	0.703528281	42110.16639	52.69146306	0.271283152	0.803603399	-0.161016256	571.7364636	-0.067115228
5.32465	0.706161862	42259.55449	52.68595808	0.271798826	0.805155243	-0.177257955	573.0489318	-0.050514389
5.334435	0.708800428	42409.12938	52.68039951	0.272314448	0.806707069	-0.194892682	574.3583009	-0.036457587
5.34422	0.71144398	42558.89033	52.6747886	0.272830015	0.808258877	-0.213567395	575.664074	-0.025443171
5.354005	0.714092515	42708.83659	52.66912624	0.273345528	0.809810663	-0.23290028	576.9659	-0.017822117
5.36379	0.716746034	42858.96743	52.66341287	0.273860985	0.811362427	-0.252489947	578.2636152	-0.013756714
5.373575	0.719404536	43009.2821	52.6576485	0.274376386	0.812914166	-0.271926528	579.5572738	-0.013189589
5.38336	0.722068021	43159.77985	52.65183269	0.27489173	0.814465878	-0.290804182	580.847164	-0.015827442
5.393145	0.724736488	43310.45994	52.64596455	0.275407017	0.816017561	-0.308734352	582.1338064	-0.02114279
5.40293	0.727409936	43461.32162	52.64004279	0.275922245	0.817569214	-0.325358967	583.4179325	-0.028395451
5.412715	0.730088365	43612.36413	52.63406571	0.276437414	0.819120835	-0.340362718	584.7004441	-0.036673634
5.4225	0.732771774	43763.58671	52.62803125	0.276952523	0.820672421	-0.353483563	585.9823548	-0.044952609
5.432285	0.735460162	43914.98863	52.62193707	0.277467572	0.822223972	-0.364520701	587.2647189	-0.052167027
5.44207	0.738153528	44066.56911	52.61578059	0.27798256	0.823775484	-0.373339433	588.5485509	-0.057291452
5.451855	0.740851873	44218.32739	52.60955908	0.278497486	0.825326956	-0.379872541	589.8347445	-0.059422534
5.46164	0.743555195	44370.26271	52.6032697	0.279012349	0.826878386	-0.384118123	591.1239959	-0.057855794
5.471425	0.746263493	44522.37431	52.5969096	0.279527148	0.828429773	-0.386134067	592.4167406	-0.052150147
5.48121	0.748976767	44674.66141	52.59047599	0.280041883	0.829981114	-0.386029663	593.713107	-0.042174152
5.490995	0.751695016	44827.12326	52.58396619	0.280556554	0.831532407	-0.383955069	595.0128933	-0.028129411
5.50078	0.754418239	44979.75907	52.57740443	0.281071158	0.83308365	-0.380089514	596.3155697	-0.010548495
